City_ID,City,Country,Max Temp,Current Description,Lat,Lng,Hotel Name
1,Hithadhoo,MV,82.81,broken clouds,-0.6,73.0833,Scoop Guest House
2,Sinnamary,GF,80.2,broken clouds,5.3833,-52.95,ALETHEIA Appartement Sinnamary
4,Rikitea,PF,76.12,overcast clouds,-23.1203,-134.9692,People ThankYou
5,Ugoofaaru,MV,82.81,overcast clouds,5.6667,73.0,Ungoofaaru Inn
7,New Ulm,US,82.54,clear sky,44.3125,-94.4605,Best Western Plus New Ulm
8,San Patricio,US,91.49,clear sky,28.017,-97.5169,"Motel 6 Sinton, TX"
10,Souillac,MU,75.58,broken clouds,-20.5167,57.5167,Shanti Maurice Resort & Spa
12,Caravelas,BR,78.01,overcast clouds,-17.7125,-39.2481,Pousada dos Navegantes
17,Victoria,HK,84.96,light rain,22.2855,114.1577,Mini Hotel Central
19,Cayhagan,PH,79.56,overcast clouds,9.6697,122.4256,Melrose Beach Resort
21,Hilo,US,70.79,light rain,19.7297,-155.09,Hilo Hawaiian Hotel
22,Bubaque,GW,81.68,scattered clouds,11.2833,-15.8333,"Casa Dora, Bubaque"
30,Sale,MA,75.63,clear sky,34.0389,-6.8166,Hôtel Mercure Rabat Sheherazade
31,Margate,GB,76.17,clear sky,51.3813,1.3862,Premier Inn Margate hotel
32,Debre Zeyit,ET,74.53,overcast clouds,8.75,38.9833,Kuriftu Resort & Spa Debre Zeyit
36,Grand Gaube,MU,75.6,broken clouds,-20.0064,57.6608,Veranda Paul et Virginie Hotel & Spa
37,Callaway,US,90.91,broken clouds,30.153000000000002,-85.5699,"Holiday Inn Express & Suites Panama City-Tyndall, an IHG Hotel"
43,Kapoeta,SS,86.47,overcast clouds,4.7717,33.5903,Eastgate Hotel
46,Sao Francisco,BR,87.84,overcast clouds,-15.9486,-44.8644,Hotel Supremo
50,Ribeira Grande,PT,72.0,scattered clouds,38.5167,-28.7,Quinta da Meia Eira
53,Kentau,KZ,79.32,overcast clouds,43.5206,68.5094,Homestay Betty's B&B
54,Pacific Grove,US,75.81,clear sky,36.6177,-121.9166,Lovers Point Inn
55,Decatur,US,93.25,clear sky,39.8403,-88.9548,Haworth Cottage
60,Ponta Do Sol,PT,76.01,few clouds,32.6667,-17.1,Hotel do Campo
61,Bonthe,SL,83.8,overcast clouds,7.5264,-12.505,Bonthe Holiday Village
63,Puerto Ayora,EC,80.56,broken clouds,-0.7393,-90.3518,Finch Bay Galapagos Hotel
64,Gillette,US,78.24,clear sky,44.2911,-105.5022,National 9 Inn - Gillette WY
66,Bengkulu,ID,76.26,broken clouds,-3.8004,102.2655,Grage Hotel Bengkulu
68,Matipo,BR,70.45,broken clouds,-20.2839,-42.3411,República DNA - Matipó MG
69,Eydhafushi,MV,83.07,overcast clouds,5.1033,73.0708,Soneva Fushi
70,Iskateley,RU,74.44,broken clouds,67.6803,53.1512,Hostel Agat
71,Vaini,TO,71.76,few clouds,-21.2,-175.2,Keleti Beach Resort
73,Santa Fe,AR,74.01,clear sky,-31.6333,-60.7,Conquistador Hotel
75,Saint-Pierre,RE,73.04,clear sky,-21.3393,55.4781,Lindsey Hôtel
76,Tautira,PF,75.22,broken clouds,-17.7333,-149.15,Pension Oaoa
80,Bambous Virieux,MU,75.45,broken clouds,-20.3428,57.7575,Casa Tia Villa
83,Cayenne,GF,80.64,overcast clouds,4.9333,-52.3333,Hôtel Le Dronmi
91,Vao,NC,73.0,overcast clouds,-22.6667,167.4833,Hotel Kou-Bugny
93,Placido De Castro,BR,82.62,broken clouds,-10.3353,-67.1856,Hotel Carioca
94,Furstenwalde,DE,71.01,broken clouds,52.3667,14.0667,HOTEL KAISERHOF
102,San Policarpo,PH,80.64,overcast clouds,12.1791,125.5072,JM Lodge
103,Yairipok,IN,70.2,overcast clouds,24.6667,94.0667,UKHONGSHANG MANINGKAI CHINGCHA
105,Makakilo City,US,75.56,light intensity drizzle,21.3469,-158.0858,Marriott's Ko Olina Beach Club
107,Georgetown,MY,84.88,scattered clouds,5.4112,100.3354,Cititel Penang
110,Fortuna,US,73.92,scattered clouds,40.5982,-124.1573,Super 8 by Wyndham Fortuna
111,Isiro,CD,72.64,overcast clouds,2.7739,27.616,Guest House Hewa Bora
113,Acajutla,SV,83.8,light rain,13.5928,-89.8275,asi es
116,Itacare,BR,84.09,overcast clouds,-14.2775,-38.9967,Ecoporan Hotel Charme Spa & Eventos
117,Calama,CL,73.89,clear sky,-22.4667,-68.9333,Diego De Almagro Calama
119,Kapaa,US,73.72,moderate rain,22.0752,-159.319,Sheraton Kauai Coconut Beach Resort
121,Gigmoto,PH,79.99,overcast clouds,13.7796,124.39,Cj's Travellers Inn
123,Cairo Montenotte,IT,84.81,few clouds,44.4031,8.2746,Ca' de l'Ase
126,Katobu,ID,74.44,overcast clouds,-4.9408,122.5276,La Ode Husein
127,Port-Gentil,GA,78.8,overcast clouds,-0.7193,8.7815,Fengshui Residence
128,Luancheng,CN,77.16,scattered clouds,37.8792,114.6517,Shell Hebei Shijiazhuang Luancheng Xinyuan Road Hotel
134,Ranong,TH,79.84,overcast clouds,9.9658,98.6348,Tinidee Hotel@Ranong
135,Tezu,IN,78.96,broken clouds,27.9167,96.1667,Circuit House
138,Garissa,KE,79.88,overcast clouds,-0.4536,39.6401,Sharif Plaza Hotel
141,Port Said,EG,78.78,clear sky,31.2565,32.2841,Aracan Hotel
142,Liberal,US,79.07,overcast clouds,37.0431,-100.921,Hampton Inn & Suites Liberal
144,Vila Velha,BR,71.55,overcast clouds,-20.3297,-40.2925,Quality Suites Vila Velha
145,Ibra,OM,92.57,few clouds,22.6906,58.5334,مزرعة راحة النفوس المنزفة
146,Laguna,US,81.05,clear sky,38.421,-121.4238,"Holiday Inn Express & Suites Elk Grove Central - Hwy 99, an IHG Hotel"
148,Asau,RO,70.72,broken clouds,46.4333,26.4,Casa Mika Ciobanus
149,Sibolga,ID,78.15,light rain,1.7427,98.7792,Hotel Syariah CN Darussalam
150,Yinchuan,CN,81.52,overcast clouds,38.4681,106.2731,JJ Inns - Yinchuan New Moon Square Branch
151,Butaritari,KI,82.02,light rain,3.0707,172.7902,Isles Sunset Lodge
152,Marsh Harbour,BS,83.03,clear sky,26.5412,-77.0636,Abaco Beach Resort
154,Emilio Carranza,MX,82.63,overcast clouds,19.9711,-96.6114,casa carranza
155,Elk City,US,85.15,clear sky,35.412,-99.4043,Hampton Inn & Suites Elk City
156,Virden,US,92.08,clear sky,39.5009,-89.7679,Virden Nail Spa
157,Alexandria,EG,77.54,clear sky,31.2156,29.9553,Royal Crown Hotel
159,Ergani,TR,81.32,scattered clouds,38.2653,39.7621,Serkan Hotel
160,Payo,ID,73.02,broken clouds,-3.7508,103.6372,Mess keban agung
161,Nikolskoye,RU,71.49,broken clouds,59.7035,30.7861,Tourist House - Sablino
162,San Pedro,PH,82.15,few clouds,14.35,121.0167,Villa Veronica Resort Private Pool
164,Aljezur,PT,73.35,broken clouds,37.3191,-8.8033,Amazigh Hostel
169,Praia Da Vitoria,PT,72.75,scattered clouds,38.7333,-27.0667,Hotel Branco I
170,Estelle,US,92.05,scattered clouds,29.8458,-90.1067,Ohio
172,Lakatoro,VU,75.51,broken clouds,-16.0999,167.4164,Lakatoro Palm Lodge
173,Jamestown,US,78.19,broken clouds,42.097,-79.2353,Hampton Inn & Suites Jamestown
174,Puerto Maldonado,PE,75.6,broken clouds,-12.6,-69.1833,Wasai Hotel
176,Avarua,CK,71.65,broken clouds,-21.2078,-159.775,Paradise Inn
179,Venado Tuerto,AR,72.77,clear sky,-33.7456,-61.9688,Hotel - Miro Park
181,Magomeni,TZ,76.48,overcast clouds,-6.8,39.25,Conway Hotel
184,Loa Janan,ID,74.55,broken clouds,-0.583,117.095,Pondok hijau 2A
185,Cuitzeo,MX,82.27,few clouds,20.3333,-102.7833,Hotel Home 1
187,Faanui,PF,79.81,light rain,-16.4833,-151.75,Bora-Bora Pearl Beach Resort & Spa
188,Oswego,US,77.95,overcast clouds,43.4501,-76.1497,S & E Mobile Home Park
189,Atuona,PF,78.66,few clouds,-9.8,-139.0333,Villa Enata
190,Lingao,CN,79.56,overcast clouds,19.9103,109.6859,Lingao Ditai Inn
191,Noumea,NC,71.01,overcast clouds,-22.2763,166.4572,Hôtel Le Lagon
192,Lompoc,US,84.94,clear sky,34.6391,-120.4579,"Holiday Inn Express Lompoc, an IHG Hotel"
195,Muros,ES,87.67,clear sky,42.7762,-9.0603,Apartment Av. Castelao
196,Moerai,PF,72.34,light rain,-22.4333,-151.3333,Le Manotel
199,Martapura,ID,73.49,broken clouds,-3.4167,114.85,Montana Hotel Syariah
203,Banda Aceh,ID,80.83,overcast clouds,5.5577,95.3222,Sulthan Hotel International
209,Sigli,ID,79.75,overcast clouds,5.3848,95.9609,Losmen Dua Mali
212,Pangai,TO,75.76,scattered clouds,-19.8,-174.35,Ha'apai Beach Resort
214,Bathsheba,BB,86.61,few clouds,13.2167,-59.5167,Atlantis Hotel
215,Najran,SA,90.25,scattered clouds,17.4924,44.1277,محمد هادي ال فطيح
217,Mazatlan,MX,90.01,few clouds,23.2167,-106.4167,Hotel Club Playamar
220,Coahuayana,MX,87.28,broken clouds,18.7333,-103.6833,El rranchito michuacan de ocampos
226,Paita,PE,77.56,clear sky,-5.0892,-81.1144,Hotel Náutico de Paita
227,Dauphin,CA,71.74,clear sky,51.1494,-100.0502,Canway Inn & Suites
230,Kerrville,US,88.61,clear sky,30.0474,-99.1403,Inn Of The Hills Hotel & Conference Center
234,Bentiu,SS,88.2,overcast clouds,9.2333,29.8333,Mandela hôtel
235,Essenbach,DE,76.68,overcast clouds,48.6167,12.2167,Hotel Luginger
236,Los Llanos De Aridane,ES,74.12,broken clouds,28.6585,-17.9182,Valle Aridane
238,San Cristobal,VE,80.78,broken clouds,7.7669,-72.225,Posada Villaven C.A.
242,Mindelo,CV,80.15,broken clouds,16.8901,-24.9804,Hotel Gaudi
243,Morgan City,US,91.99,overcast clouds,29.6994,-91.2068,Hampton Inn & Suites Morgan City
249,Kieta,PG,77.14,clear sky,-6.2167,155.6333,Uruna Bay Retreat
250,Fort Atkinson,US,88.03,scattered clouds,42.9289,-88.8371,"Holiday Inn Express & Suites Fort Atkinson, an IHG Hotel"
252,Arraial Do Cabo,BR,73.26,broken clouds,-22.9661,-42.0278,Pousada Porto Praia
256,Namibe,AO,73.53,clear sky,-15.1961,12.1522,Hotel Chik Chik Namibe
258,Mola Di Bari,IT,81.21,clear sky,41.0609,17.0873,Hotel Gabbiano
259,Saint George,US,94.35,clear sky,37.1041,-113.5841,Best Western Plus Abbey Inn
262,Saint-Philippe,RE,72.95,broken clouds,-21.3585,55.7679,"Chambres d'hôte ""La Trinité"""
263,Bucak,TR,72.12,broken clouds,37.4592,30.595,Gülay Apart
265,Bandarbeyla,SO,79.7,broken clouds,9.4942,50.8122,JABIR HOTEL
266,Ambanja,MG,75.2,broken clouds,-13.6833,48.45,Hotel Salama and Fast Food
267,Pimentel,PE,71.89,overcast clouds,-6.8367,-79.9342,Casona Del Muelle
271,Meulaboh,ID,77.23,overcast clouds,4.1363,96.1285,Kost Pria
272,Dingle,PH,77.07,light rain,10.9995,122.6711,SEGAYA PROPERTY
275,Tanabe,JP,71.92,moderate rain,33.7333,135.3667,美吉屋旅館
276,Pochutla,MX,83.82,broken clouds,15.7432,-96.4661,Hotel Posada San Jose
279,Shahpura,IN,92.53,clear sky,27.3833,75.9667,Shahpura Haveli
280,Lumberton,US,85.82,overcast clouds,34.6182,-79.0086,"Country Inn & Suites by Radisson, Lumberton, NC"
286,Half Moon Bay,US,75.47,clear sky,37.4636,-122.4286,"The Ritz-Carlton, Half Moon Bay"
290,Achutupo,PA,83.53,scattered clouds,9.2,-77.9833,Akwa Reef Lodge
292,Along,IN,75.43,broken clouds,28.1667,94.7667,Hotel West
295,Tayu,ID,79.39,broken clouds,-6.5397,111.0518,Toko pakaian bu is Tayu
296,Mucurapo,TT,90.01,broken clouds,10.6667,-61.5333,Courtyard by Marriott Port of Spain
297,Margherita,IN,77.13,broken clouds,27.2833,95.6833,Dehing Guest House
300,Bad Sooden-Allendorf,DE,71.15,overcast clouds,51.2833,9.9833,Waldhotel Soodener Hof
302,Amuntai,ID,73.29,broken clouds,-2.4177,115.2494,Hotel Balqis
303,Kenscoff,HT,75.34,broken clouds,18.4506,-72.2869,Auberzazage Sur La Montagne
305,Champerico,GT,90.95,overcast clouds,14.3,-91.9167,"Hotel y restaurante ""El Diamante"""
308,Mahebourg,MU,75.49,broken clouds,-20.4081,57.7,Shandrani Beachcomber Resort & Spa
311,Mattru,SL,82.49,moderate rain,7.6244,-11.8332,"Mondkor Town, Bagbo Chiefdom, Bo District"
314,Sao Filipe,CV,76.53,overcast clouds,14.8961,-24.4956,Hotel Xaguate
316,Barcelos,PT,83.68,few clouds,41.5388,-8.6151,Hotel Do Terço
317,Nakhon Thai,TH,75.02,moderate rain,17.1006,100.8374,Phet resort
319,Nacala,MZ,72.34,clear sky,-14.5428,40.6728,Nacala Plaza Business Design Hotel
321,Presidencia Roque Saenz Pena,AR,74.44,clear sky,-26.7852,-60.4388,Hotel Gualok
322,Abu Dhabi,AE,91.42,clear sky,24.4667,54.3667,Ramee Garden Hotel Apartments
324,Umarkot,PK,89.94,clear sky,25.3616,69.7362,Al-Qamar Boys Hostel
327,Malgrat De Mar,ES,91.15,few clouds,41.6466,2.7414,AQUA Hotel Aquamarina & Spa
328,Labuhan,ID,79.25,clear sky,-6.8844,112.2051,PT PPI Lamongan Tambak C
329,Sola,VU,79.5,overcast clouds,-13.8833,167.55,Leumerus Bungalows
331,Gat,IL,87.4,clear sky,31.61,34.7642,OlusHome
333,Teknaf,BD,80.22,overcast clouds,20.8624,92.3058,Forestry Guesthouse
334,Karratha,AU,74.34,overcast clouds,-20.7377,116.8463,ibis Styles Karratha
337,Cape Coast,GH,83.1,broken clouds,5.1053,-1.2466,Samrit Hotel
338,Sal Rei,CV,86.56,clear sky,16.1833,-22.9167,Marine Club Beach Resort
339,Necochea,AR,74.03,few clouds,-38.5473,-58.7368,dyd -mar Hotel
342,Odweyne,SO,81.07,overcast clouds,9.4092,45.06399999999999,Eng Hiirey House
343,Hobyo,SO,78.62,overcast clouds,5.3505,48.5268,Halane Hotel and Restaurent
344,Namatanai,PG,79.29,light rain,-3.6667,152.4333,Seagulls Inn Namatani
345,Banikoara,BJ,94.1,broken clouds,11.2985,2.4386,Hôtel de l'UCom CVPC
346,Guiratinga,BR,87.55,broken clouds,-16.3494,-53.7583,Hotel Angra do Cerrado - Guiratinga MT
348,Puerto Escondido,MX,81.43,overcast clouds,15.85,-97.0667,Aldea del Bazar Hotel and Spa
350,Puerto Baquerizo Moreno,EC,77.99,broken clouds,-0.9,-89.6,Hotel los Algarrobos
351,Dharchula,IN,71.24,broken clouds,29.85,80.5333,Mahara Hotel
352,Paciran,ID,79.92,clear sky,-6.8767,112.3761,Tanjung Kodok Beach Resort
354,Puerto Del Rosario,ES,74.88,clear sky,28.5004,-13.8627,Hotel JM Puerto del Rosario
356,Kavieng,PG,81.91,clear sky,-2.5744,150.7967,Nusa Island Retreat
357,Sao Felix Do Xingu,BR,91.27,overcast clouds,-6.6447,-51.995,Rio Xingu Camping
360,Belmonte,BR,82.9,overcast clouds,-15.8631,-38.8828,Pousada Monte Carmelo O Pão
363,North Bend,US,72.25,broken clouds,43.4065,-124.2243,Red Lion Hotel Coos Bay
367,Methoni,GR,78.66,broken clouds,36.8197,21.7049,Methoni Beach Hotel
369,Taybad,IR,89.71,clear sky,34.74,60.7756,لی پوش jean center
371,Kismayo,SO,77.61,overcast clouds,-0.3582,42.5454,Agan-Hotel
377,Leesburg,US,74.86,overcast clouds,39.1157,-77.5636,"Homewood Suites by Hilton Leesburg, VA"
378,Northam,GB,71.13,scattered clouds,51.0333,-4.2167,Durrant House Hotel
379,Erenhot,CN,75.0,broken clouds,43.6475,111.9767,Erenhot Rurouni Youth Hostel
382,Eyl,SO,80.38,overcast clouds,7.9803,49.8164,Amiin Hotel
384,Haldibari,IN,77.14,overcast clouds,26.3333,88.7667,Rahul and Debika
385,Mamallapuram,IN,84.25,overcast clouds,12.6264,80.1722,Radisson Blu Resort Temple Bay Mamallapuram
387,Iracoubo,GF,81.19,broken clouds,5.4802,-53.2011,Le Gite D Iracoubo
389,Fayetteville,US,82.54,overcast clouds,35.0527,-78.8784,American Eagle Inn
393,Ituacu,BR,87.53,overcast clouds,-13.8133,-41.2967,Hotel Alelos
395,San Cataldo,IT,71.46,broken clouds,37.4841,13.9854,Hotel Helios Inn
396,Gushikawa,JP,80.6,scattered clouds,26.3544,127.8686,Kirari Guest House
398,San Isidro,PE,70.02,overcast clouds,-12.1167,-77.05,Soul Mate-Inn
399,Pechora,RU,73.72,overcast clouds,65.1472,57.2244,"Гоставя компания ""ВИЗИТ"""
400,Kaduna,NG,72.21,overcast clouds,10.5222,7.4383,HAMDALA HOTEL
405,Kudahuvadhoo,MV,82.63,scattered clouds,2.6708,72.8944,Niyama Private Islands Maldives
406,Chumphon,TH,74.82,overcast clouds,10.3333,98.8333,สกาน จ๋า.
407,Tuy Hoa,VN,80.76,overcast clouds,13.0833,109.3,CenDeluxe Hotel Tuy Hoa
408,Buraydah,SA,91.09,clear sky,26.326,43.975,فندق راحة السلام
412,Komsomolskiy,UZ,81.75,overcast clouds,40.4272,71.7189,Ikathouse
413,Berberati,CF,70.54,moderate rain,4.2612,15.7922,Prince Virgile ASSOMO-MOMORI
414,Bahir Dar,ET,72.19,moderate rain,11.5936,37.3908,"Delano Hotel, Bahir Dar"
415,Muli,MV,83.1,scattered clouds,2.9167,73.5667,Medhufushi Island Resort
416,Piacabucu,BR,80.96,few clouds,-10.4056,-36.4344,Piaçabuçu News
417,Vengurla,IN,77.41,overcast clouds,15.8667,73.6333,Tripvillas @ Golven Resorts
419,Isangel,VU,72.37,overcast clouds,-19.55,169.2667,Tanna Lodge
423,Kawalu,ID,72.57,broken clouds,-7.3817,108.2082,KOSAN UNGU UNSIK
424,Omboue,GA,79.21,overcast clouds,-1.5746,9.2618,Hotel Olako
426,Santa Rosa,PH,82.9,overcast clouds,14.3122,121.1114,Erlyn’s Sta Rosa City Home
427,Bardiyah,LY,73.67,clear sky,31.7561,25.0865,بورتو بردية
428,Denpasar,ID,78.46,few clouds,-8.65,115.2167,ASTON Denpasar Hotel & Convention Center
430,Poum,NC,74.34,broken clouds,-20.2333,164.0167,Gîte kajeon
431,Ratnagiri,IN,77.67,light rain,16.9833,73.3,Hotel Landmark
432,Zhanjiang,CN,80.24,light rain,21.2815,110.3427,创业旅店
433,Cockburn Town,TC,80.96,broken clouds,21.4612,-71.1419,Osprey Beach Hotel
434,La Peca,PE,78.31,light rain,-5.6111,-78.435,Hospedaje San Miguelito
438,Porto Santo,PT,75.31,scattered clouds,33.071999999999996,-16.3415,Hotel Porto Santo & Spa
446,Sarangani,PH,80.69,overcast clouds,5.4033,125.4636,Ballistic Islet
448,Gazojak,TM,90.63,clear sky,41.1875,61.4036,In gowy adamlaryñ yaśayan oyi
449,Zhuzhou,CN,80.73,scattered clouds,27.8333,113.15,Feifan Chengpin Hotel Shanmutang
450,Brookings,US,79.21,clear sky,44.3114,-96.7984,"Holiday Inn Express & Suites Brookings, an IHG Hotel"
451,Roma,US,77.86,scattered clouds,43.2128,-75.4557,Wingate By Wyndham Rome
452,Gizo,SB,80.42,few clouds,-8.103,156.8419,Imagination Island
459,San Rafael,AR,71.53,clear sky,-34.6177,-68.3301,Hotel San Rafael
462,Hami,CN,75.72,light rain,42.8,93.45,Laoyutang Resort
465,Makat,KZ,77.18,overcast clouds,47.6469,53.3463,Umit
468,Cody,US,76.62,clear sky,44.5263,-109.0565,Buffalo Bill (Cabins) Village
469,Marseille,FR,83.95,broken clouds,43.3333,5.5,Hôtel The Originals Côté Sud (ex Inter-Hotel)
471,West Fargo,US,79.02,clear sky,46.875,-96.9004,Hilton Garden Inn Fargo
472,Palauig,PH,81.37,overcast clouds,15.435,119.9045,Myhousebythesea
474,La Romana,DO,84.56,scattered clouds,18.4273,-68.9728,Casa de Campo Resort and Villas
475,Wanning,CN,80.02,overcast clouds,18.8003,110.3967,Paradise Hotel
476,Jamalpur,BD,77.59,light rain,24.9167,89.9333,College hostel
478,Eureka,US,74.19,broken clouds,40.8021,-124.1637,Eureka Inn Trademark By Wyndham
479,Ciudad Bolivar,VE,88.63,broken clouds,8.1222,-63.5497,Hotel Edi
481,Baracoa,CU,86.68,scattered clouds,20.3467,-74.4958,Hostal Rio Miel
484,Cacoal,BR,84.9,broken clouds,-11.4386,-61.4472,Hotel BR 364
489,Villa Constitucion,AR,73.36,clear sky,-33.2278,-60.3297,HOTEL EMBAJADOR
490,Shahrud,IR,76.17,clear sky,36.4182,54.9763,Royal Hotel
493,Dwarka,IN,85.44,clear sky,22.2394,68.9678,Hotel Narayan Avezika Comfort
494,Kavaratti,IN,83.88,overcast clouds,10.5669,72.642,Hotels in Lakshadweep Islands
497,Hambantota,LK,80.53,broken clouds,6.1241,81.1185,Bungalow 63
498,Abha,SA,78.62,overcast clouds,18.2164,42.5053,Abha Hotel
499,Muisne,EC,78.19,overcast clouds,0.6,-80.0333,Quinta Samay
500,Faya,SA,77.52,broken clouds,18.3851,42.4509,مقبرة ال مجمل
502,Guayaramerin,BO,80.65,scattered clouds,-10.8368,-65.3614,Hostal Funf
503,Salinas,US,76.21,clear sky,36.6777,-121.6555,Laurel Inn & Conference Center
504,Japura,ID,75.61,overcast clouds,-0.3167,102.35,Rumah mbah Jamah
505,Surt,LY,74.32,broken clouds,31.2089,16.5887,الهادي ابوشعاله سرت
506,Roebourne,AU,74.95,overcast clouds,-20.7833,117.1333,Latitude20 Roebourne Village
507,Iaciara,BR,89.22,broken clouds,-14.0958,-46.6317,Hotel Matinha
509,Lahat,ID,73.13,broken clouds,-3.8,103.5333,Hotel Grand Zuri Lahat by ZHM
510,Hastings,GB,77.27,scattered clouds,50.8552,0.5729,Zanzibar Hotel
511,Katsuura,JP,74.19,overcast clouds,35.1333,140.3,Katsuura Hotel Mikazuki
512,Gustavo Diaz Ordaz,MX,92.01,overcast clouds,26.2333,-98.5833,Chikas En El Hotel
513,Chalchihuites,MX,75.85,few clouds,23.4833,-103.8833,Hotel Posada Real
515,Matara,LK,79.38,broken clouds,5.9485,80.5353,Amaloh Boutique Resort
520,Vila Franca Do Campo,PT,72.01,broken clouds,37.7167,-25.4333,Pestana Bahia Praia
525,Padang,ID,77.95,heavy intensity rain,-0.9492,100.3543,Mercure Padang
528,Road Town,VG,86.04,scattered clouds,18.4167,-64.6167,"ZINGARA 76ft Catamaran, full crew-all included"
529,Havre,FR,72.57,broken clouds,49.5833,0.3333,gite bois jourdain
531,Saint-Joseph,RE,71.96,broken clouds,-21.3667,55.6167,"""Plantation Bed and Breakfast"
533,Mende,FR,70.3,broken clouds,44.6667,3.5,Le Plateau du Roy
535,Naica,MX,90.7,scattered clouds,27.85,-105.4833,Departamentos Nicole
538,Tongliao,CN,72.14,broken clouds,43.6125,122.2653,Meirujia Hotel
541,Axim,GH,82.36,light rain,4.8699,-2.2405,AXIM BEACH RESORT AND SPA
544,Touros,BR,86.9,few clouds,-5.1989,-35.4608,INN NEW HORIZON
545,Tomatlan,MX,91.89,scattered clouds,19.9333,-105.25,El Salvial
546,Lata,PT,81.48,broken clouds,40.1629,-8.3327,Casa Maquia
547,Moulins,FR,81.88,broken clouds,46.5,3.3333,ibis Moulins Sud
549,Marshfield,US,80.33,clear sky,44.6689,-90.1718,"Holiday Inn Conference Ctr Marshfield, an IHG Hotel"
550,Alofi,NU,71.49,overcast clouds,-19.0595,-169.9187,Taloa Heights
552,Camacha,PT,72.54,scattered clouds,33.0833,-16.3333,Hotel Porto Santo & Spa
554,Lorengau,PG,81.75,scattered clouds,-2.0226,147.2712,Lorengau Harbourside Hotel
555,Inirida,CO,71.47,heavy intensity rain,3.8653,-67.9239,Fuente del Guania Hotel de Lujo
556,Manggar,ID,82.47,scattered clouds,-2.8833,108.2667,Guest Hotel
557,Jiwani,PK,83.98,few clouds,25.05,61.7417,Al Mumtaz Transport Jiwani
561,Sturgis,US,89.67,clear sky,41.7992,-85.4192,Best Western Plus Howe Inn
563,Dafeng,CN,77.5,broken clouds,23.4517,108.5881,Shenglong Hotel
564,Leshukonskoye,RU,73.11,overcast clouds,64.8989,45.7622,Pryalitsa Hostel
566,Mahon,ES,81.16,clear sky,39.8885,4.2658,ARTIEM Capri
567,Mayo,US,76.35,overcast clouds,38.8876,-76.5119,Resorts Resource Group International
569,Havelock,US,83.01,overcast clouds,34.8791,-76.9013,Sherwood Motel
570,Huarmey,PE,71.11,scattered clouds,-10.0681,-78.1522,Hotel Miramar
571,Dymer,UA,73.54,broken clouds,50.7865,30.3026,Express Hostel
575,Quatre Cocos,MU,75.31,broken clouds,-20.2078,57.7625,Emeraude Beach Attitude Hotel
576,Jalu,LY,87.57,clear sky,29.0331,21.5482,صاحبة الفخامة
580,Paris,FR,77.52,overcast clouds,48.8534,2.3488,Hôtel Britannique - Paris Centre
581,Requena,ES,77.79,clear sky,39.4883,-1.1004,Hotel Avenida
583,South Venice,US,91.06,clear sky,27.0531,-82.4243,"Island Sun Inn & Suites - Venice, Florida Historic Downtown & Beach Getaway"
584,Ixtapa,MX,88.83,scattered clouds,20.7,-105.2,Hotel Plaza Providencia
585,Nhulunbuy,AU,75.81,scattered clouds,-12.2333,136.7667,East Arnhem Real Estate
588,Rocky Mount,US,78.71,overcast clouds,35.9382,-77.7905,Days Inn & Suites by Wyndham Rocky Mount Golden East
592,Quang Ngai,VN,78.87,overcast clouds,15.1167,108.8,Central Hotel
593,Ogdensburg,US,79.5,clear sky,44.6942,-75.4863,Dewar’s Inn on the River
594,Buenos Aires,AR,71.49,clear sky,-34.6132,-58.3772,Hotel NH Buenos Aires City
597,Coria,ES,88.54,light rain,39.9879,-6.5377,Hotel San Cristóbal
599,Gilgit,PK,79.7,scattered clouds,35.9221,74.3087,Tourist Hamlet Gilgit
600,Aguimes,ES,75.87,few clouds,27.9054,-15.4461,Hotel Villa de Aguimes
601,Carutapera,BR,80.22,light rain,-1.195,-46.02,Lidera
602,Nishihara,JP,80.65,scattered clouds,26.1842,127.7558,Minshuku Agaihama
604,Platteville,US,84.24,scattered clouds,42.7342,-90.4785,"Country Inn & Suites by Radisson, Platteville, WI"
605,Mount Pleasant,US,90.18,overcast clouds,32.7941,-79.8626,Best Western Patriots Point
606,Shiyan,CN,73.53,overcast clouds,32.6475,110.7781,Fenghuang Garden Holiday Hotel
607,Cabot,US,92.8,clear sky,34.9745,-92.0165,Super 8 by Wyndham Cabot
608,Ambon,ID,78.94,scattered clouds,-3.6954,128.1814,Swiss-Belhotel Ambon
611,Makokou,GA,73.44,moderate rain,0.5738,12.8642,WAMY RESIDENCE HOTEL
614,Sao Joao Da Barra,BR,77.09,overcast clouds,-21.6403,-41.0511,Pousada Porto De Canoas
616,Worcester,US,71.67,scattered clouds,42.3334,-71.8328,Classic Suites & Inns
620,Vero Beach,US,94.03,broken clouds,27.6386,-80.3973,Kimpton Vero Beach Hotel & Spa
621,Luanda,AO,76.1,few clouds,-8.8368,13.2343,LANDU MARINEZA LUFUANDU TONI
622,Madang,PG,76.35,scattered clouds,-5.2246,145.7966,Comfort Inn Hotel
624,Houston,US,93.33,broken clouds,29.7633,-95.3633,"Hotel ICON, Autograph Collection"
625,Lufilufi,WS,80.22,light rain,-13.8745,-171.5986,Leuaina Beach Resort and Spa
626,Pandan,PH,79.38,overcast clouds,14.0453,124.1694,Bonifacio Lodge
628,Evinayong,GQ,70.43,moderate rain,1.4368,10.5512,Hotel Don Patricio
629,Jieshi,CN,81.95,broken clouds,22.8134,115.8257,Yuehai Hotel
631,Yining,CN,75.78,broken clouds,29.0361,114.5636,Xiushui Hotel
632,Gallipoli,TR,76.86,scattered clouds,40.4103,26.6708,Oya Hotel
633,Basco,PH,84.25,overcast clouds,20.4487,121.9702,Nathaniel's Lodge
634,Broome,US,75.06,overcast clouds,42.2506,-75.833,Chenango Valley State Park
636,Darnah,LY,72.95,clear sky,32.766999999999996,22.6367,فندق الفردوس
641,Jardim,BR,77.56,clear sky,-21.4803,-56.1381,Estancia Hotel - Jardim MS
642,Turayf,SA,86.61,clear sky,31.6725,38.6637,Turaif
643,Naze,JP,74.55,overcast clouds,28.3667,129.4833,奄美ポートタワーホテル
652,Callaguip,PH,82.24,overcast clouds,18.0714,120.4867,Pangil Beach Resort
655,Mitsamiouli,KM,77.68,clear sky,-11.3847,43.2844,Foyer ADM
656,Pucallpa,PE,75.24,broken clouds,-8.3791,-74.5539,Hospedaje Komby
664,Chifeng,CN,74.28,few clouds,42.2683,118.9636,Junyu Tiancheng Hotel
670,Escanaba,US,76.68,overcast clouds,45.7453,-87.0646,Sunset Lodge
673,Salina Cruz,MX,83.03,overcast clouds,16.1667,-95.2,Amerik HOTEL
676,Brownsville,US,91.9,scattered clouds,25.9018,-97.4975,University Inn & Suites
677,Nongan,CN,73.81,overcast clouds,44.382,125.1685,Quanhu Resort
678,Barra Do Garcas,BR,86.58,clear sky,-15.89,-52.2567,Hotel Pousada Tropical
680,Le Vauclin,MQ,86.13,broken clouds,14.5452,-60.8388,Hôtel Cap Macabou
681,Biscarrosse,FR,88.03,clear sky,44.3945,-1.1672,Saint Hubert
682,Shache,CN,70.23,light rain,38.4167,77.2406,Delong Hotel
684,Independence,US,85.48,clear sky,39.0911,-94.4155,Higher Ground Hotel
685,Pimenta Bueno,BR,87.15,broken clouds,-11.6725,-61.1936,Cristalina Palace Hotel
686,Cabinda,AO,77.77,broken clouds,-5.55,12.2,Hotel Maiombe
687,Soria,ES,76.86,clear sky,41.6667,-2.6667,Casa Rural Sierra de Inodejo
688,Rio Cuarto,AR,73.83,clear sky,-33.1307,-64.3499,Grand Hotel Río Cuarto
692,Umm Lajj,SA,90.77,clear sky,25.0213,37.2685,Moon light Furnished Units
693,Acapulco,MX,78.62,overcast clouds,16.8634,-99.8901,HS Hotsson Smart Acapulco
695,Neuquen,AR,71.49,clear sky,-38.9516,-68.0591,Hotel del Comahue
696,Tura,IN,73.98,overcast clouds,25.5198,90.2201,Hotel RIKMAN Continental
701,Palmer,US,72.21,broken clouds,42.1584,-72.3287,Wedgewood Motel
705,Mae Hong Son,TH,73.8,overcast clouds,19.3003,97.9685,Baiyoke Chalet Hotel
706,Hamilton,US,89.6,few clouds,39.1834,-84.5333,Six Acres Bed & Breakfast
707,Kahului,US,75.22,scattered clouds,20.8947,-156.47,Maui Seaside Hotel
709,Nagato,JP,71.51,overcast clouds,34.3833,131.2,いそう庵
